[
  {
    "locationId": "LOC_01",
    "restaurantId": "RES_01",
    "address": "17 Tạ Quang Bửu, Hai Bà Trưng, Hà Nội",
    "latitude": 21.0045,
    "longitude": 105.8433,
    "city": "Hà Nội",
    "zipCode": "100000",
    "updatedAt": 1712831161000
  },
  {
    "locationId": "LOC_02",
    "restaurantId": "RES_02",
    "address": "Kiot 10, Cổng Parabol Bách Khoa, Hà Nội",
    "latitude": 21.0055,
    "longitude": 105.8420,
    "city": "Hà Nội",
    "zipCode": "100000",
    "updatedAt": 1712831161000
  },
  {
    "locationId": "LOC_03",
    "restaurantId": "RES_03",
    "address": "Ngõ 30 Lê Thanh Nghị, Hai Bà Trưng, Hà Nội",
    "latitude": 21.0068,
    "longitude": 105.8455,
    "city": "Hà Nội",
    "zipCode": "100000",
    "updatedAt": 1712831161000
  },
  {
    "locationId": "LOC_04",
    "restaurantId": "RES_04",
    "address": "Số 5 Giải Phóng, Đồng Tâm, Hà Nội",
    "latitude": 21.0030,
    "longitude": 105.8412,
    "city": "Hà Nội",
    "zipCode": "100000",
    "updatedAt": 1712831161000
  },
  {
    "locationId": "LOC_05",
    "restaurantId": "RES_05",
    "address": "Dãy nhà A1-KTX Bách Khoa, Hà Nội",
    "latitude": 21.0015,
    "longitude": 105.8468,
    "city": "Hà Nội",
    "zipCode": "100000",
    "updatedAt": 1712831161000
  },
  {
    "locationId": "LOC_06",
    "restaurantId": "RES_06",
    "address": "Cổng trường Đại học Xây Dựng, Hà Nội",
    "latitude": 21.0075,
    "longitude": 105.8400,
    "city": "Hà Nội",
    "zipCode": "100000",
    "updatedAt": 1712831161000
  },
  {
    "locationId": "LOC_07",
    "restaurantId": "RES_07",
    "address": "Ngõ 121 Lê Thanh Nghị, Hai Bà Trưng, Hà Nội",
    "latitude": 21.0022,
    "longitude": 105.8480,
    "city": "Hà Nội",
    "zipCode": "100000",
    "updatedAt": 1712831161000
  },
  {
    "locationId": "LOC_08",
    "restaurantId": "RES_08",
    "address": "Trần Đại Nghĩa (kéo dài), Hai Bà Trưng, Hà Nội",
    "latitude": 21.0050,
    "longitude": 105.8390,
    "city": "Hà Nội",
    "zipCode": "100000",
    "updatedAt": 1712831161000
  },
  {
    "locationId": "LOC_09",
    "restaurantId": "RES_09",
    "address": "Phố Vọng, Đồng Tâm, Hai Bà Trưng, Hà Nội",
    "latitude": 21.0082,
    "longitude": 105.8425,
    "city": "Hà Nội",
    "zipCode": "100000",
    "updatedAt": 1712831161000
  },
  {
    "locationId": "LOC_10",
    "restaurantId": "RES_10",
    "address": "Ngõ Tự Do, KTX Kinh Tế Quốc Dân, Hà Nội",
    "latitude": 21.0040,
    "longitude": 105.8475,
    "city": "Hà Nội",
    "zipCode": "100000",
    "updatedAt": 1712831161000
  },
  {
    "locationId": "LOC_11",
    "restaurantId": "RES_11",
    "address": "Số 8 Tạ Quang Bửu, Bách Khoa, Hà Nội",
    "latitude": 21.0060,
    "longitude": 105.8440,
    "city": "Hà Nội",
    "zipCode": "100000",
    "updatedAt": 1712831161000
  },
  {
    "locationId": "LOC_12",
    "restaurantId": "RES_12",
    "address": "Cổng sau Đại học Kinh Tế Quốc Dân, Hà Nội",
    "latitude": 21.0028,
    "longitude": 105.8405,
    "city": "Hà Nội",
    "zipCode": "100000",
    "updatedAt": 1712831161000
  },
  {
    "locationId": "LOC_13",
    "restaurantId": "RES_13",
    "address": "Đại Cồ Việt, Lê Đại Hành, Hà Nội",
    "latitude": 21.0090,
    "longitude": 105.8410,
    "city": "Hà Nội",
    "zipCode": "100000",
    "updatedAt": 1712831161000
  },
  {
    "locationId": "LOC_14",
    "restaurantId": "RES_14",
    "address": "Khu tập thể Bách Khoa, Hai Bà Trưng, Hà Nội",
    "latitude": 21.0010,
    "longitude": 105.8450,
    "city": "Hà Nội",
    "zipCode": "100000",
    "updatedAt": 1712831161000
  },
  {
    "locationId": "LOC_15",
    "restaurantId": "RES_15",
    "address": "Bạch Mai, Cầu Dền, Hai Bà Trưng, Hà Nội",
    "latitude": 21.0035,
    "longitude": 105.8495,
    "city": "Hà Nội",
    "zipCode": "100000",
    "updatedAt": 1712831161000
  },
  {
    "locationId": "LOC_16",
    "restaurantId": "RES_16",
    "address": "Ngõ 204 Lê Thanh Nghị, Hai Bà Trưng, Hà Nội",
    "latitude": 21.0058,
    "longitude": 105.8460,
    "city": "Hà Nội",
    "zipCode": "100000",
    "updatedAt": 1712831161000
  },
  {
    "locationId": "LOC_17",
    "restaurantId": "RES_17",
    "address": "Lê Duẩn, Phương Mai, Đống Đa, Hà Nội",
    "latitude": 21.0070,
    "longitude": 105.8385,
    "city": "Hà Nội",
    "zipCode": "100000",
    "updatedAt": 1712831161000
  },
  {
    "locationId": "LOC_18",
    "restaurantId": "RES_18",
    "address": "Khu B10 Bách Khoa, Hai Bà Trưng, Hà Nội",
    "latitude": 21.0025,
    "longitude": 105.8428,
    "city": "Hà Nội",
    "zipCode": "100000",
    "updatedAt": 1712831161000
  },
  {
    "locationId": "LOC_19",
    "restaurantId": "RES_19",
    "address": "Tòa nhà Việt Úc, Lê Thanh Nghị, Hà Nội",
    "latitude": 21.0048,
    "longitude": 105.8445,
    "city": "Hà Nội",
    "zipCode": "100000",
    "updatedAt": 1712831161000
  },
  {
    "locationId": "LOC_20",
    "restaurantId": "RES_20",
    "address": "Ngõ 33 Tạ Quang Bửu, Bách Khoa, Hà Nội",
    "latitude": 21.0062,
    "longitude": 105.8418,
    "city": "Hà Nội",
    "zipCode": "100000",
    "updatedAt": 1712831161000
  },
  {
    "locationId": "LOC_21",
    "restaurantId": "RES_21",
    "address": "Trần Đại Nghĩa, Đồng Tâm, Hai Bà Trưng, Hà Nội",
    "latitude": 21.0018,
    "longitude": 105.8472,
    "city": "Hà Nội",
    "zipCode": "100000",
    "updatedAt": 1712831161000
  },
  {
    "locationId": "LOC_22",
    "restaurantId": "RES_22",
    "address": "Giải Phóng (gần BV Bạch Mai), Hà Nội",
    "latitude": 21.0032,
    "longitude": 105.8398,
    "city": "Hà Nội",
    "zipCode": "100000",
    "updatedAt": 1712831161000
  },
  {
    "locationId": "LOC_23",
    "restaurantId": "RES_23",
    "address": "Số 25 Tạ Quang Bửu, Bách Khoa, Hà Nội",
    "latitude": 21.0052,
    "longitude": 105.8430,
    "city": "Hà Nội",
    "zipCode": "100000",
    "updatedAt": 1712831161000
  },
  {
    "locationId": "LOC_24",
    "restaurantId": "RES_24",
    "address": "Trần Khát Chân, Hai Bà Trưng, Hà Nội",
    "latitude": 21.0080,
    "longitude": 105.8458,
    "city": "Hà Nội",
    "zipCode": "100000",
    "updatedAt": 1712831161000
  },
  {
    "locationId": "LOC_25",
    "restaurantId": "RES_25",
    "address": "Cổng KTX Đại học Xây Dựng, Hà Nội",
    "latitude": 21.0020,
    "longitude": 105.8415,
    "city": "Hà Nội",
    "zipCode": "100000",
    "updatedAt": 1712831161000
  },
  {
    "locationId": "LOC_26",
    "restaurantId": "RES_26",
    "address": "Phố Vọng (gần ngã tư Vọng), Hà Nội",
    "latitude": 21.0042,
    "longitude": 105.8465,
    "city": "Hà Nội",
    "zipCode": "100000",
    "updatedAt": 1712831161000
  },
  {
    "locationId": "LOC_27",
    "restaurantId": "RES_27",
    "address": "Thanh Nhàn, Hai Bà Trưng, Hà Nội",
    "latitude": 21.0056,
    "longitude": 105.8488,
    "city": "Hà Nội",
    "zipCode": "100000",
    "updatedAt": 1712831161000
  },
  {
    "locationId": "LOC_28",
    "restaurantId": "RES_28",
    "address": "Ngõ Quỳnh, Bạch Mai, Hà Nội",
    "latitude": 21.0065,
    "longitude": 105.8408,
    "city": "Hà Nội",
    "zipCode": "100000",
    "updatedAt": 1712831161000
  },
  {
    "locationId": "LOC_29",
    "restaurantId": "RES_29",
    "address": "Khu tập thể Bộ Giáo Dục, Tạ Quang Bửu, Hà Nội",
    "latitude": 21.0038,
    "longitude": 105.8422,
    "city": "Hà Nội",
    "zipCode": "100000",
    "updatedAt": 1712831161000
  },
  {
    "locationId": "LOC_30",
    "restaurantId": "RES_30",
    "address": "Lạc Trung, Vĩnh Tuy, Hai Bà Trưng, Hà Nội",
    "latitude": 21.0072,
    "longitude": 105.8448,
    "city": "Hà Nội",
    "zipCode": "100000",
    "updatedAt": 1712831161000
  }
]